,osm_id,code,fclass,name,point_x,point_y,lon,lat
0,358766981,2005,post_office,Chickamauga Post Office,-85.2916230000,34.8720213000,-85.29162,34.87202
1,358767120,2005,post_office,LaFayette Post Office,-85.2741310000,34.6980153000,-85.27413,34.69802
2,358767272,2005,post_office,Rock Spring Post Office,-85.2416212000,34.8231331000,-85.24162,34.82313
3,358767281,2005,post_office,Rossville Post Office,-85.2863454000,34.9831309000,-85.28635,34.98313
4,367913950,2007,library,Chickamauga Public Library,-85.2919008000,34.8734102000,-85.2919,34.87341
5,367914472,2099,public_building,Rossville Civic Center,-85.2841232000,34.9820197000,-85.28412,34.98202
6,367914995,2008,town_hall,Chickamauga City Hall,-85.2919357000,34.8714305000,-85.29194,34.87143
7,367914996,2008,town_hall,Lookout Mountain City Hall,-85.3577363000,34.9778536000,-85.35774,34.97785
