,osm_id,code,fclass,name,point_x,point_y,lon,lat
0,358772517,2005,post_office,Winder Post Office,-83.7193376000,33.9937209000,-83.71934,33.99372
1,367912991,2009,courthouse,Barrow County Courthouse,-83.7218377000,33.9920542000,-83.72184,33.99205
2,367914997,2008,town_hall,Bethlehem City Hall,-83.7132271000,33.9323335000,-83.71323,33.93233
3,367914998,2008,town_hall,Statham City Hall,-83.5959994000,33.9656683000,-83.596,33.96567
4,367915003,2008,town_hall,Winder City Hall,-83.7193376000,33.9937209000,-83.71934,33.99372
5,367913280,2002,fire_station,Auburn Fire Station,-83.8244548000,34.0128711000,-83.82445,34.01287
6,367914314,2001,police,Auburn Police Station,-83.8267990000,34.0134202000,-83.8268,34.01342
