,osm_id,code,fclass,name,point_x,point_y,lon,lat
0,358765867,2005,post_office,Cohutta Post Office,-84.9518900000,34.9595209000,-84.95189,34.95952
1,358765896,2005,post_office,Dalton Post Office,-84.9724451000,34.7711910000,-84.97245,34.77119
2,358766092,2005,post_office,Tunnel Hill Post Office,-85.0449480000,34.8423004000,-85.04495,34.8423
3,358766108,2005,post_office,Varnell Post Office,-84.9743904000,34.9009108000,-84.97439,34.90091
4,367913025,2009,courthouse,Whitfield County Courthouse,-84.9713092000,34.7721377000,-84.97131,34.77214
5,5396317260,2002,fire_station,,-84.9368123000,34.7951158000,-84.93681,34.79512
6,5397240610,2008,town_hall,Varnell City Hall,-84.9400908000,34.8956444000,-84.94009,34.89564
7,5397409639,2008,town_hall,Dalton City Hall,-84.9702351000,34.7745929000,-84.97024,34.77459
8,5419788826,2002,fire_station,,-84.9465276000,34.9109677000,-84.94653,34.91097
