osm_id,code,fclass,name,point_x,point_y,lon,lat
358682173,2082,school,Carey School,-84.4713190000,33.7853839000,-84.47132,33.78538
358685236,2082,school,Margaret Fain Elementary School,-84.4977088000,33.7562181000,-84.49771,33.75622
358691698,2082,school,Mayson School,-84.4956835000,33.7878110000,-84.49568,33.78781
358698129,2082,school,Philadelphia School,-84.4602071000,33.7231633000,-84.46021,33.72316
358703152,2082,school,William J Scott Elementary School,-84.4696523000,33.8023278000,-84.46965,33.80233
358704610,2082,school,Jean Childs Young Middle School,-84.4893749000,33.7328854000,-84.48937,33.73289
358720302,2082,school,Center Hill School,-84.4649298000,33.7773285000,-84.46493,33.77733
358781617,2082,school,Kimberly Elementary School,-84.4899301000,33.7020528000,-84.48993,33.70205
358781745,2082,school,Thorrell High School,-84.4890967000,33.6989974000,-84.4891,33.699
358781749,2082,school,George A Towns Elementary School,-84.5046535000,33.7759398000,-84.50465,33.77594
358781839,2082,school,Mays High School,-84.5035421000,33.7334410000,-84.50354,33.73344
358782058,2082,school,A D Williams Elementary School,-84.4774303000,33.7851061000,-84.47743,33.78511
358782061,2082,school,University Community Academy,-84.4543738000,33.7592734000,-84.45437,33.75927
358782064,2082,school,Archer High School,-84.4615965000,33.8048277000,-84.4616,33.80483
358782080,2082,school,C M Pitts Elementary School,-84.4602075000,33.8034389000,-84.46021,33.80344
358782083,2082,school,Chattahoochee Elementary School,-84.4777082000,33.8087166000,-84.47771,33.80872
358782090,2082,school,Collier Heights Elementary School,-84.4885418000,33.7642735000,-84.48854,33.76427
358782104,2082,school,Frederick Douglass High School,-84.4677077000,33.7609400000,-84.46771,33.76094
358782117,2082,school,Charles Lincoln Harper-Samuel Howard Archer Middle School,-84.4988200000,33.7695511000,-84.49882,33.76955
358782120,2082,school,Harwell Road Elementary School,-84.4940976000,33.7726066000,-84.4941,33.77261
358782184,2082,school,Beecher Hills Elementary School,-84.4632628000,33.7356629000,-84.46326,33.73566
358782291,2082,school,Peyton Forest Elementary School,-84.4763191000,33.7473293000,-84.47632,33.74733
358782303,2082,school,Rosalie Wright Elementary School,-84.4590962000,33.7459404000,-84.4591,33.74594
358782361,2082,school,West Manor Elementary School,-84.4896528000,33.7398296000,-84.48965,33.73983
358782759,2082,school,Alfred Blalock Elementary School,-84.4990979000,33.7939949000,-84.4991,33.79399
358784424,2082,school,Daniel McLaughlin Therrell High School,-84.4894444000,33.6988889000,-84.48944,33.69889
358784429,2082,school,Basoline E Usher Elementary School,-84.4938889000,33.7725000000,-84.49389,33.7725
358784592,2082,school,Hamilton E Holmes Elementary School,-84.4661000000,33.6944000000,-84.4661,33.6944
358784622,2082,school,Nsoromma School,-84.4636000000,33.7226000000,-84.4636,33.7226
358785266,2082,school,Imhotep Academy,-84.4983693000,33.7721501000,-84.49837,33.77215
358785890,2082,school,Romer Academy,-84.5079000000,33.7223000000,-84.5079,33.7223
5315598194,2501,supermarket,Walmart Supercenter,-84.5079080000,33.7283700000,-84.50791,33.72837
358682299,2082,school,Carter School,-84.3560369000,33.8470483000,-84.35604,33.84705
358691414,2082,school,Margaret Mitchell School,-84.4335398000,33.8320491000,-84.43354,33.83205
358700183,2082,school,R L Hope School,-84.3715931000,33.8456596000,-84.37159,33.84566
358701166,2082,school,Rock Springs School,-84.3615926000,33.8201046000,-84.36159,33.8201
358708620,2082,school,Westminster School,-84.4318731000,33.8426044000,-84.43187,33.8426
358762789,2082,school,Garden Hills Elementary School,-84.3787460000,33.8317808000,-84.37875,33.83178
358762817,2082,school,Trinity School,-84.4238173000,33.8428821000,-84.42382,33.84288
358768588,2082,school,Morris Brandon Elementary School,-84.4154836000,33.8298268000,-84.41548,33.82983
358769927,2082,school,E Rivers Elementary School,-84.3899270000,33.8195491000,-84.38993,33.81955
358785234,2082,school,Atlanta Girls School,-84.4232650000,33.8433479000,-84.42326,33.84335
358785236,2082,school,Atlanta International School,-84.3785000000,33.8334000000,-84.3785,33.8334
358785244,2082,school,Atlanta Speech School,-84.4225000000,33.8414000000,-84.4225,33.8414
779212214,2303,cafe,Starbucks,-84.3883597000,33.8188124000,-84.38836,33.81881
779212218,2501,supermarket,Publix,-84.3865436000,33.8209249000,-84.38654,33.82092
779212236,2303,cafe,Caribou Coffee,-84.3701491000,33.8439407000,-84.37015,33.84394
1252485964,2303,cafe,Starbucks,-84.3656140000,33.8255930000,-84.36561,33.82559
1273536542,2501,supermarket,Publix,-84.4279835000,33.8483406000,-84.42798,33.84834
2760795142,2303,cafe,Zoe's Kitchen,-84.3877516000,33.8188265000,-84.38775,33.81883
3021596180,2303,cafe,Starbucks,-84.3826938000,33.8353822000,-84.38269,33.83538
3177347161,2501,supermarket,Publix,-84.3594776000,33.8511259000,-84.35948,33.85113
3376750155,2501,supermarket,Publix,-84.3836046000,33.8350792000,-84.3836,33.83508
4081894989,2303,cafe,SIP The Experience,-84.3698719000,33.8227339000,-84.36987,33.82273
4643468356,2303,cafe,IN Between Cafe,-84.3823401000,33.8362255000,-84.38234,33.83623
5735187122,2501,supermarket,Kroger,-84.3743372000,33.8455819000,-84.37434,33.84558
5899746387,2501,supermarket,Trader Joe’s,-84.3751232000,33.8408678000,-84.37512,33.84087
7603259568,2082,school,,-84.3860006000,33.8279110000,-84.386,33.82791
358681568,2082,school,Joseph Emerson Brown Middle School,-84.4211111000,33.7338889000,-84.42111,33.73389
358682163,2082,school,Capitol View Elementary School,-84.4068716000,33.7156631000,-84.40687,33.71566
358682323,2082,school,Carver Vocational School,-84.3888155000,33.7184406000,-84.38882,33.71844
358682907,2082,school,Clark College,-84.4119504000,33.7483228000,-84.41195,33.74832
358683325,2082,school,Connally Elementary School,-84.4399286000,33.7323295000,-84.43993,33.73233
358683361,2082,school,Cook School,-84.3807598000,33.7467732000,-84.38076,33.74677
358683760,2082,school,Walter Leonard Parks Middle School,-84.3964340000,33.7250386000,-84.39643,33.72504
358685307,2082,school,Tech High School,-84.3535366000,33.7459396000,-84.35354,33.74594
358685583,2082,school,Formwalt School,-84.3965938000,33.7439956000,-84.39659,33.744
358685855,2082,school,Fulton High School,-84.3721480000,33.6987188000,-84.37215,33.69872
358685913,2082,school,Gammon Theological Seminary,-84.3877043000,33.7178851000,-84.3877,33.71789
358685974,2082,school,Georgia Avenue School,-84.3960381000,33.7367736000,-84.39604,33.73677
358688618,2082,school,J C Harris School,-84.4332618000,33.7420514000,-84.43326,33.74205
358688776,2082,school,Jere Wells School,-84.4310507000,33.6965684000,-84.43105,33.69657
358689152,2082,school,Jones School,-84.3663147000,33.7289958000,-84.36631,33.729
358689439,2082,school,Key School,-84.3882600000,33.7326069000,-84.38826,33.73261
358689816,2082,school,Lakewood Elementary School,-84.3768704000,33.7053854000,-84.37687,33.70539
358690107,2082,school,Lee Street School,-84.4134401000,33.7391801000,-84.41344,33.73918
358692589,2082,school,Milton Avenue School,-84.3810374000,33.7209405000,-84.38104,33.72094
358692896,2082,school,Morehouse College,-84.4157865000,33.7487107000,-84.41579,33.74871
358697898,2082,school,Rusk Elementary School,-84.4196501000,33.7389959000,-84.41965,33.739
358699905,2082,school,Luther Judson Price Middle School,-84.3874265000,33.7092742000,-84.38743,33.70927
358700118,2082,school,Pryor Street School,-84.3941450000,33.7306882000,-84.39414,33.73069
358700230,2082,school,Ragsdale School,-84.4242387000,33.7217993000,-84.42424,33.7218
358702762,2082,school,Salvation Army Training College,-84.4054829000,33.7267739000,-84.40548,33.72677
358704092,2082,school,Thomas Heathe Slater Elementary School,-84.3913156000,33.7181629000,-84.39132,33.71816
358704302,2082,school,Smith-Hughes Vocational School,-84.3926421000,33.7482329000,-84.39264,33.74823
358704463,2082,school,Campbell Elementary School,-84.3885377000,33.7151074000,-84.38854,33.71511
358705669,2082,school,Sylvan Hills Middle School,-84.4179832000,33.7151076000,-84.41798,33.71511
358705673,2082,school,Sylvan Hills School,-84.4199276000,33.7070522000,-84.41993,33.70705
358707510,2082,school,Venetian Hills Elementary School,-84.4496510000,33.7142745000,-84.44965,33.71427
358707791,2082,school,Walker Street School,-84.4010384000,33.7501065000,-84.40104,33.75011
358708534,2082,school,Atlanta Charter Middle School,-84.3549254000,33.7326067000,-84.35493,33.73261
358713847,2082,school,Perkerson Elementary School,-84.4124273000,33.6981636000,-84.41243,33.69816
358762126,2082,school,Carver High School,-84.3890933000,33.7184406000,-84.38909,33.71844
358781795,2084,college,Beulah Heights Bible College,-84.3579812000,33.7370510000,-84.35798,33.73705
358781816,2082,school,John Wesley Dobbs Elementary School,-84.3632588000,33.7001076000,-84.36326,33.70011
358781826,2082,school,Georgia State Police Academy,-84.3554810000,33.7259402000,-84.35548,33.72594
358781864,2082,school,Thomasville Heights Elementary School,-84.3552031000,33.7039964000,-84.3552,33.704
358782178,2082,school,Arkwright Elementary School,-84.4385395000,33.7209409000,-84.43854,33.72094
358782210,2082,school,Charles L Gideons Elementary School,-84.4054829000,33.7312182000,-84.40548,33.73122
358782226,2082,school,The Barack & Michelle Obama Academy,-84.3829821000,33.7281626000,-84.38298,33.72816
358782285,2082,school,Paul Laurence Dunbar Elementary School,-84.4013162000,33.7417735000,-84.40132,33.74177
358782765,2082,school,Rusk Elementary School,-84.4215947000,33.7431625000,-84.42159,33.74316
358782768,2082,school,M Agnes Jones Elementary School,-84.4227059000,33.7487178000,-84.42271,33.74872
358782888,2082,school,Atlanta Technical College,-84.4043715000,33.7117743000,-84.40437,33.71177
358782892,2082,school,Atlanta Street Academy,-84.4318728000,33.7392737000,-84.43187,33.73927
358783048,2082,school,McClendons School of Dance,-84.4202057000,33.7376070000,-84.42021,33.73761
358783105,2082,school,Saint Anthonys School,-84.4193723000,33.7381626000,-84.41937,33.73816
358783202,2082,school,West Hill Child Development Center,-84.4357619000,33.7412181000,-84.43576,33.74122
358784445,2082,school,Early College High School at Carver,-84.3880556000,33.7194444000,-84.38806,33.71944
358784618,2082,school,Morehouse School of Medicine,-84.4137970000,33.7439638000,-84.4138,33.74396
358784636,2082,school,Romar Academy,-84.4324000000,33.6960000000,-84.4324,33.696
358784639,2082,school,Victory Charter Elementary School,-84.4309541000,33.6967916000,-84.43095,33.69679
1141444131,2303,cafe,Marlee's Coffee and Tea,-84.3787121000,33.7497186000,-84.37871,33.74972
1748940289,2303,cafe,Drip Coffee Shop,-84.3572531000,33.7406611000,-84.35725,33.74066
1973081734,2303,cafe,The Little Tart Bakeshop,-84.3727959000,33.7460780000,-84.3728,33.74608
2262804445,2110,hospital,Southern Smiles Family Dentistry,-84.3583646000,33.7405719000,-84.35836,33.74057
2288048120,2303,cafe,Sweet Cheats,-84.3643866000,33.7504418000,-84.36439,33.75044
2703552247,2303,cafe,Grant Park Coffeehouse,-84.3737177000,33.7337611000,-84.37372,33.73376
3499486829,2014,arts_centre,FUSE Arts Center (C4 Atlanta),-84.3923157000,33.7504260000,-84.39232,33.75043
5353863723,2082,school,Urban Explorers Prescool,-84.3794565000,33.7369954000,-84.37946,33.737
7779207985,2303,cafe,Park Grounds,-84.3546490000,33.7501026000,-84.35465,33.7501
2301659655,2501,supermarket,ALDI (South Atlanta),-84.3500050000,33.7137749000,-84.35,33.71377
6903329386,2501,supermarket,Piggly Wiggly,-84.3503835000,33.7201191000,-84.35038,33.72012
358682296,2082,school,KIPP West Atlanta Young Scholars Academy,-84.4174280000,33.7570509000,-84.41743,33.75705
358682979,2082,school,Clement School,-84.4377066000,33.7603843000,-84.43771,33.76038
358683687,2082,school,Grove Park Elementary School,-84.4421511000,33.7709396000,-84.44215,33.77094
358687355,2082,school,Alonzo F Herndon Elementary School,-84.4207614000,33.7631620000,-84.42076,33.76316
358688243,2082,school,Howe School,-84.4118722000,33.7998276000,-84.41187,33.79983
358692976,2082,school,Morris Brown College,-84.4085387000,33.7551065000,-84.40854,33.75511
358694329,2082,school,Mount Vernon School,-84.4404845000,33.8023277000,-84.44048,33.80233
358704979,2082,school,F L Stanton Elementary School,-84.4421511000,33.7534400000,-84.44215,33.75344
358706766,2082,school,Henry McNeal Turner Middle School,-84.4504848000,33.7562178000,-84.45048,33.75622
358707914,2082,school,Ware School,-84.4057608000,33.7551065000,-84.40576,33.75511
358708484,2082,school,Benjamin S Carson Honors Preparatory School,-84.4468735000,33.7734396000,-84.44687,33.77344
358720218,2082,school,Clara Muhammad School,-84.4274238000,33.7723476000,-84.42742,33.77235
358720227,2082,school,Carter G Woodson Elementary School,-84.4399289000,33.7723284000,-84.43993,33.77233
358782078,2082,school,William M Boyd Elementary School,-84.4490959000,33.7859392000,-84.4491,33.78594
358782156,2082,school,Walter F White Elementary School,-84.4485403000,33.7662176000,-84.44854,33.76622
358783743,2082,school,Interdenominational Theological Center,-84.4088165000,33.7545509000,-84.40882,33.75455
358784438,2082,school,School for Integrated Academics and Technologies,-84.4413889000,33.7608333000,-84.44139,33.76083
780931920,2303,cafe,Octane Coffee Bar & Lounge,-84.4103060000,33.7794653000,-84.41031,33.77947
1259091114,2501,supermarket,Kroger,-84.4125016000,33.8018104000,-84.4125,33.80181
1259638881,2083,kindergarten,Paly 2 Grow,-84.4152061000,33.8102967000,-84.41521,33.8103
1907452776,2501,supermarket,Publix,-84.4145863000,33.8102117000,-84.41459,33.81021
3082529002,2501,supermarket,Walmart Supercenter,-84.4107163000,33.8025976000,-84.41072,33.8026
3372607294,2303,cafe,West Egg Cafe,-84.4121460000,33.7843654000,-84.41215,33.78437
3372607296,2303,cafe,Urban Grind,-84.4089783000,33.7777018000,-84.40898,33.7777
6208524788,2303,cafe,Brash,-84.4118789000,33.7856086000,-84.41188,33.78561
6592625851,2303,cafe,Cafe at Pharr,-84.4342245000,33.8069279000,-84.43422,33.80693
6636739232,2303,cafe,Dunkin' Donuts,-84.4064809000,33.7912425000,-84.40648,33.79124
358686338,2082,school,Gray Street School,-84.4004829000,33.7662172000,-84.40048,33.76622
358690861,2082,school,Luckie Street School,-84.3949271000,33.7667728000,-84.39493,33.76677
358782110,2081,university,Georgia State University,-84.3860379000,33.7528842000,-84.38604,33.75288
536672764,2303,cafe,Starbucks,-84.3886713000,33.7566098000,-84.38867,33.75661
861902895,2303,cafe,Starbucks,-84.3970800000,33.7584530000,-84.39708,33.75845
1446314511,2303,cafe,Landmark Diner,-84.3890915000,33.7566131000,-84.38909,33.75661
2035267512,2303,cafe,Just Around the Corner,-84.3926492000,33.7571903000,-84.39265,33.75719
3485157910,2303,cafe,Condesa Coffee,-84.3828534000,33.7554483000,-84.38285,33.75545
3485166783,2303,cafe,Arden's Garden,-84.3827845000,33.7554465000,-84.38278,33.75545
3485179629,2303,cafe,Ebrik Coffee Room,-84.3888128000,33.7539249000,-84.38881,33.75392
3548349216,2504,mall,Downtown Mini Mall,-84.3917132000,33.7528509000,-84.39171,33.75285
3641407797,2014,arts_centre,Murmur,-84.3931150000,33.7518297000,-84.39312,33.75183
5260314989,2303,cafe,Cafe Lucia,-84.3898802000,33.7557155000,-84.38988,33.75572
5413277910,2303,cafe,Caffé 1897,-84.3889215000,33.7557965000,-84.38892,33.7558
5413277913,2303,cafe,Boba Mocha,-84.3892380000,33.7552672000,-84.38924,33.75527
6375927985,2303,cafe,Kung Fu Tea,-84.3884643000,33.7543954000,-84.38846,33.7544
6918500667,2303,cafe,Starbucks,-84.3947990000,33.7603949000,-84.3948,33.76039
6918531177,2303,cafe,Starbucks,-84.3944136000,33.7578881000,-84.39441,33.75789
7025144080,2303,cafe,Starbucks,-84.3867205000,33.7543665000,-84.38672,33.75437
358682542,2082,school,Central Park School,-84.4463172000,33.6817753000,-84.44632,33.68178
358682857,2082,school,Church Street School,-84.4449282000,33.6767755000,-84.44493,33.67678
358683322,2082,school,Conley Hills School,-84.4565954000,33.6848308000,-84.4566,33.68483
358687144,2082,school,Harris Street School,-84.4349279000,33.6845529000,-84.43493,33.68455
358690717,2082,school,Longino School,-84.4543728000,33.6642758000,-84.45437,33.66428
358697646,2082,school,Park Lane School,-84.4249275000,33.6784419000,-84.42493,33.67844
358701654,2082,school,Tri-Cities High School,-84.4368041000,33.6849967000,-84.4368,33.685
358781534,2082,school,Christ Christian School,-84.4579843000,33.6809420000,-84.45798,33.68094
358781546,2082,school,College Park High School,-84.4504837000,33.6564982000,-84.45048,33.6565
358781598,2082,school,Headland High School,-84.4657624000,33.6898307000,-84.46576,33.68983
358781675,2082,school,Pathway Christian School,-84.4440948000,33.6751088000,-84.44409,33.67511
358781702,2082,school,Saint Johns Episcopal School,-84.4457613000,33.6606648000,-84.44576,33.66066
358781716,2082,school,South Fulton Junior High School,-84.4307610000,33.6751087000,-84.43076,33.67511
358781770,2082,school,Woodward Academy,-84.4421501000,33.6628869000,-84.44215,33.66289
358782297,2082,school,Quillian-East Point Elementary School,-84.4302055000,33.6753865000,-84.43021,33.67539
358784605,2082,school,KIPP Charter School,-84.4291000000,33.6757000000,-84.4291,33.6757
358784615,2082,school,McClarin Alternative School,-84.4501000000,33.6566000000,-84.4501,33.6566
358784625,2082,school,Paul D West Middle School,-84.4660000000,33.6900000000,-84.466,33.69
466106596,2501,supermarket,Wayfields,-84.4545796000,33.6877824000,-84.45458,33.68778
466115280,2501,supermarket,Wayfields,-84.4480736000,33.6609467000,-84.44807,33.66095
466129277,2501,supermarket,,-84.4610684000,33.6702405000,-84.46107,33.67024
4836654588,2501,supermarket,Walmart Express,-84.4241089000,33.6562438000,-84.42411,33.65624
5315596527,2501,supermarket,Walmart Supercenter,-84.4165220000,33.6783630000,-84.41652,33.67836
358682552,2082,school,South Fulton Parks & Rec Old Cliftondale Elementary School,-84.5971541000,33.6512209000,-84.59715,33.65122
358702864,2082,school,Sandtown School,-84.5613207000,33.7053863000,-84.56132,33.70539
358706105,2082,school,Thomas Oliver School,-84.5363201000,33.7012196000,-84.53632,33.70122
358707441,2082,school,Utoy Springs School,-84.5193756000,33.7270522000,-84.51938,33.72705
358711208,2082,school,Atlanta Youth Development Center,-84.5371540000,33.7531628000,-84.53715,33.75316
358781474,2082,school,Adamsville Elementary School,-84.5138203000,33.7548293000,-84.51382,33.75483
358781637,2082,school,Lenora P Miles Elementary School,-84.5254872000,33.7559404000,-84.52549,33.75594
358781786,2082,school,Ben Hill Elementary School,-84.5146528000,33.6901088000,-84.51465,33.69011
358781823,2082,school,Fickett Elementary School,-84.5165974000,33.6973308000,-84.5166,33.69733
358781847,2082,school,Ralph Bunche Middle School,-84.5307644000,33.7012196000,-84.53076,33.70122
358781881,2082,school,West Atlanta Elementary School,-84.5199310000,33.7145526000,-84.51993,33.71455
358781884,2082,school,Westlake High School,-84.5759765000,33.6894686000,-84.57598,33.68947
358784435,2082,school,Achieve Academy of Atlanta,-84.5216667000,33.7197222000,-84.52167,33.71972
358785877,2082,school,Atlanta Adventist Academy,-84.5147000000,33.7250000000,-84.5147,33.725
358785884,2082,school,Cascade Adventist Academy,-84.5163000000,33.7254000000,-84.5163,33.7254
358785887,2082,school,Cascade Adventist Elementary School,-84.5174000000,33.7261000000,-84.5174,33.7261
358785894,2082,school,Southwest Atlanta Christian Academy,-84.5157000000,33.6918000000,-84.5157,33.6918
358785898,2082,school,Southwest Atlanta Christian Academy,-84.5153000000,33.6920000000,-84.5153,33.692
358785932,2082,school,Arlington Christian School,-84.6419000000,33.6405000000,-84.6419,33.6405
367912781,2014,arts_centre,Southwest Performing Arts Center,-84.5415000000,33.7300000000,-84.5415,33.73
4127523376,2402,motel,Armada Inn,-84.5257873000,33.7674286000,-84.52579,33.76743
5658956848,2082,school,Cliftondale Elementary School,-84.6146255000,33.6580987000,-84.61463,33.6581
358784431,2082,school,Centennial Place Elementary School,-84.3955556000,33.7697222000,-84.39556,33.76972
2434041405,2303,cafe,Broadway Diner,-84.3851518000,33.7715889000,-84.38515,33.77159
6227558789,2303,cafe,Cafeteria,-84.3877488000,33.7706769000,-84.38775,33.77068
6250268928,2303,cafe,Blue Donkey Coffee,-84.3989011000,33.7741077000,-84.3989,33.77411
358781726,2082,school,Spalding Drive Elementary School,-84.3824270000,33.9506570000,-84.38243,33.95066
358781870,2082,school,Underwood Hills Elementary School,-84.3985387000,33.9287132000,-84.39854,33.92871
358785521,2082,school,Epstein School,-84.3986000000,33.9286000000,-84.3986,33.9286
358785524,2082,school,First Montessori School of Atlanta,-84.3931000000,33.9120000000,-84.3931,33.912
358785552,2082,school,Polestar Center for Experiential Education,-84.3830000000,33.9135000000,-84.383,33.9135
358785565,2082,school,Solidarity School,-84.3839000000,33.9107000000,-84.3839,33.9107
358786002,2082,school,Mount Veron Presbyterian School,-84.3719000000,33.9246000000,-84.3719,33.9246
532358820,2082,school,Weber,-84.3751664000,33.9391776000,-84.37517,33.93918
1833761427,2303,cafe,Starbucks,-84.3777267000,33.9366257000,-84.37773,33.93663
5553282873,2303,cafe,Starbucks,-84.3790848000,33.9086753000,-84.37908,33.90868
5900467460,2303,cafe,Perk n Pooch,-84.3810474000,33.9379969000,-84.38105,33.938
358692914,2082,school,Morgan Falls School,-84.3621484000,33.9664899000,-84.36215,33.96649
358781652,2082,school,North Metro Campus Georgia State University,-84.3499257000,33.9195465000,-84.34993,33.91955
358781766,2082,school,Woodland Elementary School,-84.3517725000,33.9610276000,-84.35177,33.96103
358782627,2082,school,Webb School,-84.3593704000,33.9181578000,-84.35937,33.91816
358785945,2082,school,Atlanta Country Day School,-84.3599000000,33.9699000000,-84.3599,33.9699
532470369,2501,supermarket,Kroger,-84.3481150000,33.9826447000,-84.34812,33.98264
2298852654,2501,supermarket,Kroger,-84.3011685000,33.9605553000,-84.30117,33.96056
3152548559,2501,supermarket,Publix,-84.3527028000,33.9197820000,-84.3527,33.91978
5384103638,2303,cafe,Starbucks,-84.3484917000,33.9321171000,-84.34849,33.93212
7070302517,2303,cafe,500 Cafe,-84.3438531000,33.9835409000,-84.34385,33.98354
358719785,2082,school,Haynes Bridge Middle School,-84.2822130000,34.0404902000,-84.28221,34.04049
358762840,2082,school,Kimball Bridge School,-84.2802006000,34.0648208000,-84.2802,34.06482
358785419,2082,school,Alpharetta Methodist Christian Academy,-84.2919000000,34.0789000000,-84.2919,34.0789
358785444,2082,school,Fulton County Charter High School For Mathematics and Science,-84.3153000000,34.0216000000,-84.3153,34.0216
358785448,2082,school,Fulton Science Academy,-84.3083000000,34.0611000000,-84.3083,34.0611
358785459,2082,school,Holy Redeemer Elementary School,-84.2629000000,34.0219000000,-84.2629,34.0219
358785467,2082,school,King's Ridge Christian School,-84.3004000000,34.0683000000,-84.3004,34.0683
358785470,2082,school,Lionheart School,-84.2883542000,34.0762647000,-84.28835,34.07626
358785473,2082,school,Manning Oaks Elementary School,-84.2860000000,34.0800000000,-84.286,34.08
358785491,2082,school,Nesbit Ferry Montessori,-84.2780000000,34.0065000000,-84.278,34.0065
358785495,2082,school,Summit Hill Elementary School,-84.3206000000,34.1180000000,-84.3206,34.118
358785499,2082,school,Summit Hill Elementary School,-84.3191000000,34.1183000000,-84.3191,34.1183
634377274,2082,school,Alpharetta Elementary,-84.3013438000,34.0814700000,-84.30134,34.08147
2301659642,2501,supermarket,Aldi,-84.2722929000,34.0998562000,-84.27229,34.09986
2938250533,2501,supermarket,Kroger,-84.2779746000,34.0961549000,-84.27797,34.09615
3349022836,2082,school,,-84.3182096000,34.0112339000,-84.31821,34.01123
4285520360,2303,cafe,Starbucks,-84.2744971000,34.0890107000,-84.2745,34.08901
4285562920,2501,supermarket,India Plaza,-84.2760986000,34.0891920000,-84.2761,34.08919
4357838930,2084,college,Gwinnett Technical College (Alpharetta Campus),-84.2757014000,34.0678796000,-84.2757,34.06788
4524912377,2303,cafe,Starbucks,-84.3118817000,34.0180684000,-84.31188,34.01807
4524913281,2303,cafe,Kale Me Crazy,-84.3121540000,34.0181918000,-84.31215,34.01819
5368360260,2501,supermarket,Publix,-84.2938525000,34.0730708000,-84.29385,34.07307
5369166853,2303,cafe,Café Intermezzo,-84.2778330000,34.0707801000,-84.27783,34.07078
5369193298,2303,cafe,Starbucks,-84.2730908000,34.0708823000,-84.27309,34.07088
6192799862,2303,cafe,Clean Juice,-84.2847894000,34.0699210000,-84.28479,34.06992
6262733188,2303,cafe,The Nest Cafe,-84.2967652000,34.0770686000,-84.29677,34.07707
6262733189,2303,cafe,Starbucks,-84.2948126000,34.0707767000,-84.29481,34.07078
7716854529,2501,supermarket,Publix,-84.2676022000,34.0231925000,-84.2676,34.02319
7716854530,2303,cafe,Starbucks,-84.2681064000,34.0218319000,-84.26811,34.02183
7716854531,2501,supermarket,Kroger,-84.2716362000,34.0230635000,-84.27164,34.02306
7784004653,2303,cafe,Café au Lait,-84.2937130000,34.0039934000,-84.29371,34.00399
7848283079,2504,mall,Preston Ridge Commons,-84.2622396000,34.0751308000,-84.26224,34.07513
7857407746,2504,mall,East Village,-84.2845063000,34.0004591000,-84.28451,34.00046
7859459985,2303,cafe,Coffee La Monde,-84.3148510000,34.0187510000,-84.31485,34.01875
7875972633,2303,cafe,Café au Lait,-84.2937130000,34.0039934000,-84.29371,34.00399
358719678,2082,school,Dolvin School,-84.2340875000,34.0356549000,-84.23409,34.03565
358719682,2082,school,Woodward North Academy,-84.1657499000,34.0331557000,-84.16575,34.03316
358719804,2082,school,Barnwell School,-84.2504775000,34.0103774000,-84.25048,34.01038
358786136,2082,school,Taylor Road Middle School,-84.2093953000,34.0528191000,-84.2094,34.05282
358786169,2082,school,Abbotts Hill Elementary School,-84.1964794000,34.0561267000,-84.19648,34.05613
358786172,2082,school,Alpharetta International Academy,-84.2199000000,34.0636000000,-84.2199,34.0636
358786175,2082,school,Autrey Mill Middle School,-84.2402000000,34.0160000000,-84.2402,34.016
358786179,2082,school,Clear Springs Christian Academy,-84.2146000000,34.0624000000,-84.2146,34.0624
358786198,2082,school,McGinnis Woods Country Day School,-84.2020000000,34.0900000000,-84.202,34.09
358786205,2082,school,Ocee Elementary School,-84.2318000000,34.0553000000,-84.2318,34.0553
358786210,2082,school,Perimeter Christian School,-84.1950614000,34.0131941000,-84.19506,34.01319
358786221,2082,school,River Trail Middle School,-84.1246248000,34.0435300000,-84.12462,34.04353
532480250,2082,school,Autrey Mill Middle School,-84.2399202000,34.0188785000,-84.23992,34.01888
532483618,2082,school,Johns Creek High School,-84.1952127000,34.0228325000,-84.19521,34.02283
627616759,2501,supermarket,Whole Foods Market,-84.1834939000,34.0129851000,-84.18349,34.01299
768266047,2082,school,,-84.2133836000,34.0405291000,-84.21338,34.04053
2294918776,2082,school,Chattahoochee High School,-84.2081663000,34.0498370000,-84.20817,34.04984
2773021948,2501,supermarket,Super H Mart,-84.1781905000,34.0447826000,-84.17819,34.04478
2810148148,2303,cafe,Starbucks,-84.2412818000,34.0929290000,-84.24128,34.09293
4507476378,2501,supermarket,Publix,-84.1877314000,34.0182247000,-84.18773,34.01822
4841666369,2501,supermarket,Publix,-84.2349493000,34.0574631000,-84.23495,34.05746
7888800765,2303,cafe,The Flying Biscuit,-84.2254085000,34.0501038000,-84.22541,34.0501
358781602,2082,school,Heards Ferry Elementary School,-84.4207617000,33.9176024000,-84.42076,33.9176
358782351,2082,school,Warren T Jackson Elementary School,-84.4229840000,33.8731592000,-84.42298,33.87316
358785531,2082,school,Holy Innocents Episcopal School,-84.4131000000,33.9082000000,-84.4131,33.9082
358785536,2082,school,Holy Spirit Preparatory School,-84.4118000000,33.8774000000,-84.4118,33.8774
2973889710,2501,supermarket,Publix,-84.4276814000,33.9053213000,-84.42768,33.90532
4646070358,2083,kindergarten,Buckhead Preparatory School,-84.4101110000,33.8723175000,-84.41011,33.87232
358679715,2082,school,Atlanta Christian College,-84.4757627000,33.6851087000,-84.47576,33.68511
358781510,2082,school,Blairwood High School,-84.4810405000,33.6695536000,-84.48104,33.66955
358781522,2082,school,Brookview Elementary School,-84.4957629000,33.6464987000,-84.49576,33.6465
358781559,2082,school,Dodson Drive Elementary School,-84.4760405000,33.6853865000,-84.47604,33.68539
358781613,2082,school,Kathleen Mitchell Elementary School,-84.4702065000,33.6481653000,-84.47021,33.64817
358781627,2082,school,Lake Shore High School,-84.4815957000,33.6420543000,-84.4816,33.64205
358781642,2082,school,Mount Olive Elementary School,-84.4782625000,33.6645537000,-84.47826,33.66455
358781661,2082,school,Oak Knoll Elementary School,-84.4738181000,33.6764978000,-84.47382,33.6765
358781799,2082,school,Camp Creek Middle School,-84.5279858000,33.6367768000,-84.52799,33.63678
358785881,2082,school,Believers Bible Christian Academy,-84.5067000000,33.6909000000,-84.5067,33.6909
2820464297,2303,cafe,Starbucks,-84.5031617000,33.6543988000,-84.50316,33.6544
2841538045,2402,motel,Quality Inn East Point,-84.4919186000,33.6338154000,-84.49192,33.63382
3377390832,2501,supermarket,Kroger,-84.4878879000,33.6868738000,-84.48789,33.68687
358690226,2082,school,Liberty Guinn School,-84.3843714000,33.8878808000,-84.38437,33.88788
358704291,2082,school,Sarah Rawson Smith Elementary School,-84.3754822000,33.8581593000,-84.37548,33.85816
358781603,2082,school,High Point Elementary School,-84.3699264000,33.8992694000,-84.36993,33.89927
358781687,2082,school,Ridgeview Middle School,-84.3590927000,33.8978804000,-84.35909,33.89788
358782337,2082,school,Willis Sutton Middle School,-84.3999275000,33.8739923000,-84.39993,33.87399
358785215,2082,school,Sophia Academy,-84.3493000000,33.8597000000,-84.3493,33.8597
358785981,2082,school,Atlanta Jewish Academy,-84.3668000000,33.8959000000,-84.3668,33.8959
4688969860,2501,supermarket,Kroger,-84.3832149000,33.8899367000,-84.38321,33.88994
358684657,2082,school,Eastern School,-84.4982627000,33.6276103000,-84.49826,33.62761
358781550,2082,school,Collins High School,-84.4824284000,33.5940000000,-84.48243,33.594
358781629,2082,school,Mary Bethune Elementary,-84.4813173000,33.5928889000,-84.48132,33.59289
358781633,2082,school,Love T Nolan Elementary School,-84.4807614000,33.5720561000,-84.48076,33.57206
358781668,2082,school,Old National Christian School,-84.4746503000,33.5901112000,-84.47465,33.59011
358781739,2082,school,The Meadows Elementary School,-84.4765952000,33.6109440000,-84.4766,33.61094
358782309,2082,school,S L Lewis Elementary School,-84.5038177000,33.5765006000,-84.50382,33.5765
358785395,2082,school,Little Peoples Learning Center,-84.4784000000,33.5868000000,-84.4784,33.5868
358785416,2082,school,World Changes Christian Academy,-84.4726000000,33.5966000000,-84.4726,33.5966
5315598315,2501,supermarket,Walmart Supercenter,-84.4721790000,33.5868660000,-84.47218,33.58687
358782735,2082,school,,-84.2854781000,34.1506524000,-84.28548,34.15065
358682418,2082,school,Cedar Grove School,-84.6835448000,33.6239994000,-84.68354,33.624
358700828,2082,school,Riley School,-84.6688215000,33.5251127000,-84.66882,33.52511
358709577,2082,school,Campbell Elementary School,-84.5749306000,33.5726117000,-84.57493,33.57261
358782181,2082,school,Arlington School,-84.6515997000,33.6348324000,-84.6516,33.63483
358782191,2082,school,Benjamin E Banneker High School,-84.5174294000,33.5931668000,-84.51743,33.59317
358782200,2082,school,Landmark Christian Academy,-84.5814173000,33.5646323000,-84.58142,33.56463
358782245,2082,school,Evoline C West Elementary School,-84.6199317000,33.5726117000,-84.61993,33.57261
358782249,2082,school,Fairburn Elementary School,-84.5793750000,33.5603898000,-84.57938,33.56039
358782273,2082,school,Palmetto Elementary School,-84.6615990000,33.5153908000,-84.6616,33.51539
358782275,2082,school,Palmetto High School,-84.6713216000,33.5306682000,-84.67132,33.53067
358782322,2082,school,South Fulton Vocational Center,-84.5199294000,33.5898335000,-84.51993,33.58983
358782330,2082,school,Stonewall Elementary School,-84.5518747000,33.6012221000,-84.55187,33.60122
358782346,2082,school,Union City Elementary School,-84.5540969000,33.5842781000,-84.5541,33.58428
358785312,2082,school,Bear Creek Middle School,-84.6277000000,33.5529000000,-84.6277,33.5529
358786239,2082,school,Southeastern Christian School,-84.5509000000,33.5729000000,-84.5509,33.5729
358719810,2082,school,Crabapple Middle School,-84.3635372000,34.0400993000,-84.36354,34.0401
358719816,2082,school,Montessori Hammond School,-84.3343693000,34.0545433000,-84.33437,34.05454
358719853,2082,school,Roswell North School,-84.3682596000,34.0375994000,-84.36826,34.0376
358719877,2082,school,High Meadows School,-84.3921496000,34.0137111000,-84.39215,34.01371
358719940,2082,school,Fellowship Christian Academy,-84.3752042000,34.0512102000,-84.3752,34.05121
358719948,2082,school,Roswell High School,-84.3815933000,34.0628767000,-84.38159,34.06288
358781645,2082,school,Mountain Park School,-84.4040940000,34.0706544000,-84.40409,34.07065
358781649,2082,school,North Fulton Alternative Center,-84.3535369000,34.0281551000,-84.35354,34.02816
358781709,2082,school,Sandy Springs Middle School,-84.3393698000,33.9959335000,-84.33937,33.99593
358782806,2082,school,Crestwood High School,-84.3393698000,33.9959335000,-84.33937,33.99593
358785108,2082,school,Village Montessori School,-84.4089000000,34.0618000000,-84.4089,34.0618
358785426,2082,school,Chrysalis Experiential Academy,-84.3306000000,34.0324000000,-84.3306,34.0324
358785433,2082,school,Cross of Life Montessori School,-84.3319428000,34.0627781000,-84.33194,34.06278
358785438,2082,school,Eaton Academy,-84.3366000000,34.0343000000,-84.3366,34.0343
358785441,2082,school,Elkins Pointe Middle School,-84.3342000000,34.0539000000,-84.3342,34.0539
358785451,2082,school,Hembree Springs Elementary School,-84.3361726000,34.0600827000,-84.33617,34.06008
358785478,2082,school,Mill Springs Academy,-84.3671000000,34.1175000000,-84.3671,34.1175
358785481,2082,school,Mill Springs Acadmey,-84.3693000000,34.1161000000,-84.3693,34.1161
358785484,2082,school,Mimosa Elementary School,-84.3315000000,34.0362000000,-84.3315,34.0362
358786027,2082,school,Rivercliff Lutheran School,-84.3520000000,33.9959000000,-84.352,33.9959
367912782,2014,arts_centre,Roswell Cultural Arts Center,-84.3577039000,34.0234330000,-84.3577,34.02343
532172484,2501,supermarket,Kroger,-84.3896219000,34.0040611000,-84.38962,34.00406
532172509,2303,cafe,Starbucks,-84.3898708000,34.0049007000,-84.38987,34.0049
2441462303,2303,cafe,Land of a Thousand Hills Coffee House,-84.3601990000,34.0083350000,-84.3602,34.00834
2714938157,2303,cafe,Starbucks,-84.3416186000,34.0432519000,-84.34162,34.04325
5865794688,2501,supermarket,Trader Joe's,-84.3796574000,34.0593900000,-84.37966,34.05939
6507347569,2082,school,Roswell Presbyterian Preschool,-84.3628699000,34.0184751000,-84.36287,34.01848
7859421381,2303,cafe,Sarah Donuts,-84.3419624000,34.0333043000,-84.34196,34.0333
358679583,2082,school,Archbishop R Ryan Memorial School,-84.3715929000,33.7551062000,-84.37159,33.75511
358685099,2082,school,Emory University School of Dentistry,-84.3821488000,33.7637172000,-84.38215,33.76372
358688236,2082,school,Howard High School,-84.3685334000,33.7588700000,-84.36853,33.75887
358688872,2082,school,John Hope School,-84.3724262000,33.7570506000,-84.37243,33.75705
358702776,2082,school,Samuel Martin Inman Middle School,-84.3627408000,33.7824283000,-84.36274,33.78243
358705952,2082,school,Tenth Street School,-84.3802044000,33.7803835000,-84.3802,33.78038
358782763,2082,school,C W Hill Elementary School,-84.3743707000,33.7678837000,-84.37437,33.76788
358785247,2082,school,Children's School,-84.3753000000,33.7818000000,-84.3753,33.7818
532466814,2501,supermarket,Trader Joe's,-84.3678804000,33.7797895000,-84.36788,33.77979
1246052435,2303,cafe,Danneman's,-84.3722770000,33.7544225000,-84.37228,33.75442
1246052475,2303,cafe,Cafe 458,-84.3726793000,33.7544336000,-84.37268,33.75443
1573471359,2082,school,Grady High School,-84.3712151000,33.7806741000,-84.37122,33.78067
1923227121,2501,supermarket,Whole Foods Market,-84.3658985000,33.7751411000,-84.3659,33.77514
1940768590,2303,cafe,The Dancing Goats® Coffee Bar @ Ponce City Market,-84.3673949000,33.7714564000,-84.36739,33.77146
2186544525,2501,supermarket,Publix,-84.3811381000,33.7703942000,-84.38114,33.77039
2277885151,2303,cafe,,-84.3806359000,33.7820917000,-84.38064,33.78209
4124644889,2082,school,General Assembly,-84.3667406000,33.7724394000,-84.36674,33.77244
4262434589,2082,school,Inman Park Cooperative Preschool,-84.3627434000,33.7551237000,-84.36274,33.75512
5351941421,2303,cafe,Condesa,-84.3718563000,33.7597409000,-84.37186,33.75974
7571739519,2082,school,Austin Thomas Walden Middle School,-84.3772192000,33.7578719000,-84.37722,33.75787
358682996,2082,school,Cleveland Avenue Elementary School,-84.3913153000,33.6814972000,-84.39132,33.6815
358683179,2082,school,College Street School,-84.4085378000,33.6556647000,-84.40854,33.65566
358688354,2082,school,Joseph Humphries Elementary School,-84.3763147000,33.6717752000,-84.37631,33.67178
358696215,2082,school,North Avenue School,-84.4110380000,33.6656644000,-84.41104,33.66566
358701983,2082,school,Saint Johns School,-84.3985375000,33.6556646000,-84.39854,33.65566
358781519,2082,school,Brewer Elementary School,-84.3977045000,33.6901081000,-84.3977,33.69011
358781556,2082,school,Crawford Williamson Long Middle School,-84.3946485000,33.6667754000,-84.39465,33.66678
358781562,2082,school,Emma Hutchinson Elementary School,-84.4099270000,33.6806640000,-84.40993,33.68066
358781579,2082,school,George High School,-84.3618696000,33.6709417000,-84.36187,33.67094
358781586,2082,school,Hapeville High School,-84.4063156000,33.6603868000,-84.40632,33.66039
358781610,2082,school,Josephine Wells Elementary School,-84.4057600000,33.6614978000,-84.40576,33.6615
358781640,2082,school,Heritage Academy Elementary School,-84.3757590000,33.6628865000,-84.37576,33.66289
358781867,2082,school,Tull Waters Elementary School,-84.3668700000,33.6889969000,-84.36687,33.689
358784595,2082,school,Hapeville Elementary School,-84.4067000000,33.6602000000,-84.4067,33.6602
4772967643,2303,cafe,drip,-84.4086839000,33.6588707000,-84.40868,33.65887
358687444,2082,school,Highland School,-84.3552034000,33.7712168000,-84.3552,33.77122
497350542,2303,cafe,Inman Perk Coffee,-84.3591397000,33.7625177000,-84.35914,33.76252
536665814,2303,cafe,Java Vino,-84.3523271000,33.7701175000,-84.35233,33.77012
555126575,2303,cafe,Java dive,-84.3614837000,33.7739889000,-84.36148,33.77399
660529453,2303,cafe,Babette's Cafe,-84.3522921000,33.7699856000,-84.35229,33.76999
1573471352,2501,supermarket,Publix,-84.3543601000,33.7728977000,-84.35436,33.7729
2184808417,2303,cafe,San Francisco Coffee,-84.3555313000,33.7872621000,-84.35553,33.78726
2429478309,2303,cafe,Honey Bubble,-84.3613380000,33.7741310000,-84.36134,33.77413
5263894122,2012,community_centre,Little Five Points Community Center,-84.3526031000,33.7621973000,-84.3526,33.7622
358783815,2082,school,Chattahoochee River Environmental Education Center,-84.2582255000,33.9895990000,-84.25823,33.9896
7844446139,2303,cafe,Ground and Pound Coffee,-84.2704232000,33.9855290000,-84.27042,33.98553
7866328518,2501,supermarket,Kroger,-84.2691968000,33.9873234000,-84.2692,33.98732
358707388,2082,school,University School,-84.3835378000,33.7853834000,-84.38354,33.78538
2390850320,2303,cafe,Starbucks,-84.3829289000,33.7870427000,-84.38293,33.78704
2749706086,2504,mall,Colony Square,-84.3827605000,33.7870822000,-84.38276,33.78708
2933053627,2303,cafe,MidCity Cafe,-84.3875226000,33.7778611000,-84.38752,33.77786
4702370101,2303,cafe,Starbucks,-84.3883489000,33.7766369000,-84.38835,33.77664
4953685794,2303,cafe,Rising Roll,-84.3881965000,33.7870496000,-84.3882,33.78705
5078098971,2303,cafe,Starbucks,-84.4049042000,33.7794281000,-84.4049,33.77943
5846621785,2081,university,Center for Spatial Planning Analytics and Visualization,-84.3894196000,33.7757942000,-84.38942,33.77579
6186979685,2303,cafe,Sweet Hut Bakery,-84.3839653000,33.7800741000,-84.38397,33.78007
6206100587,2303,cafe,Dancing Goat Coffee Bar,-84.3864215000,33.7805700000,-84.38642,33.78057
6228019385,2303,cafe,hb Food Anatomy,-84.3979786000,33.7807227000,-84.39798,33.78072
6886352818,2083,kindergarten,The Children's Campus @ Georgia Tech,-84.3965707000,33.7830323000,-84.39657,33.78303
6912898013,2303,cafe,Downtown Connector,-84.3889265000,33.7750143000,-84.38893,33.77501
358692973,2082,school,Morningside Elementary School,-84.3529812000,33.7970495000,-84.35298,33.79705
358785164,2082,school,Heritage Preparatory School of Georgia,-84.3668000000,33.8021000000,-84.3668,33.8021
367912802,2014,arts_centre,Dorothy Chapman Fuqua Conservatory,-84.3750317000,33.7888999000,-84.37503,33.7889
567065894,2303,cafe,Caramba Cafe,-84.3518596000,33.7926749000,-84.35186,33.79267
760929140,2501,supermarket,Publix,-84.3978483000,33.7927085000,-84.39785,33.79271
2351693960,2303,cafe,Starbucks,-84.3707600000,33.7981330000,-84.37076,33.79813
4127926290,2402,motel,Cheshire Motor Inn,-84.3616978000,33.8090533000,-84.3617,33.80905
5351986221,2501,supermarket,Sprouts Farmers Market,-84.3666362000,33.8060112000,-84.36664,33.80601
5943008670,2303,cafe,Rising Roll,-84.3881121000,33.7971242000,-84.38811,33.79712
6203698685,2303,cafe,Starbucks,-84.3982201000,33.7914785000,-84.39822,33.79148
6205863487,2303,cafe,,-84.3972941000,33.7927833000,-84.39729,33.79278
7024641565,2303,cafe,East Pole Coffee Company,-84.3785033000,33.8106962000,-84.3785,33.8107
7567432349,2303,cafe,Fresh4You,-84.3933817000,33.8077135000,-84.39338,33.80771
1237615380,2303,cafe,Starbucks,-84.3494503000,33.7680684000,-84.34945,33.76807
1237623443,2303,cafe,Aurora Coffee,-84.3493774000,33.7670138000,-84.34938,33.76701
1237654290,2303,cafe,Village Coffeehouse,-84.3493345000,33.7656269000,-84.34933,33.76563
1237999081,2303,cafe,Java Lords Coffeehouse & Bar,-84.3509537000,33.7638564000,-84.35095,33.76386
367913072,2002,fire_station,Atlanta Fire Rescue Department - Fire Station 9,-84.5019973000,33.7578332000,-84.502,33.75783
367913210,2002,fire_station,Atlanta Fire Rescue - Station 38,-84.4834237000,33.7818784000,-84.48342,33.78188
367913211,2002,fire_station,Atlanta Fire Rescue Department - Fire Station 28,-84.4716892000,33.8087532000,-84.47169,33.80875
367913243,2002,fire_station,Atlanta Fire Rescue Department - Fire Station 25,-84.4645090000,33.7230089000,-84.46451,33.72301
367913323,2002,fire_station,Atlanta Fire Rescue Department -  Fire Station 5,-84.4810747000,33.7002193000,-84.48107,33.70022
367913555,2007,library,Adams Park Branch Atlanta-Fulton Public Library,-84.4629849000,33.7153857000,-84.46298,33.71539
367913584,2007,library,Collier Heights Branch Atlanta-Fulton Public Library,-84.5029868000,33.7581626000,-84.50299,33.75816
367913695,2007,library,Southwest Branch Atlanta Public Library,-84.5065329000,33.7244938000,-84.50653,33.72449
367914157,2001,police,Atlanta Precinct Number 1 Police Station,-84.4612000000,33.7772000000,-84.4612,33.7772
5426093084,2005,post_office,Cascade Heights Station Atlanta Post Office,-84.4643078000,33.7230552000,-84.46431,33.72306
358785180,2005,post_office,Lenox Square Post Office,-84.3618000000,33.8488000000,-84.3618,33.8488
358785199,2005,post_office,Pharr Road Post Office,-84.3686000000,33.8365000000,-84.3686,33.8365
358785769,2005,post_office,Buckhead Post Office,-84.3704345000,33.8498753000,-84.37043,33.84988
367913217,2002,fire_station,Atlanta Fire Rescue Department - Fire Station 21,-84.3784487000,33.8425775000,-84.37845,33.84258
367913232,2002,fire_station,Atlanta Station 26 Fire Station,-84.4211000000,33.8373000000,-84.4211,33.8373
367913558,2007,library,Paces Ferry Branch Atlanta-Fulton Public Library,-84.4271507000,33.8492709000,-84.42715,33.84927
367913989,2007,library,Buckhead Library,-84.3793876000,33.8376223000,-84.37939,33.83762
367914317,2001,police,Atlanta Precinct Number 2 Police Station,-84.3617428000,33.8232693000,-84.36174,33.82327
2930419353,2001,police,Atlanta Police Department Zone 2 Precinct,-84.3731601000,33.8401123000,-84.37316,33.84011
4664879365,2005,post_office,The UPS Store,-84.3843630000,33.8336702000,-84.38436,33.83367
6172410685,2005,post_office,FedEx,-84.3644264000,33.8256153000,-84.36443,33.82562
358782264,2005,post_office,Lakewood Station Atlanta Post Office,-84.3804818000,33.7084408000,-84.38048,33.70844
358784584,2005,post_office,Fort McPherson Post Office,-84.4402000000,33.7120000000,-84.4402,33.712
358785708,2005,post_office,Atlanta Central City Post Office,-84.3939000000,33.7439000000,-84.3939,33.7439
358785711,2005,post_office,Capitol Hill Post Office,-84.3882000000,33.7486000000,-84.3882,33.7486
367912849,2009,courthouse,Fulton County Juvenile Court,-84.3905901000,33.7501418000,-84.39059,33.75014
367913010,2009,courthouse,Fulton County Courthouse,-84.3907337000,33.7499951000,-84.39073,33.75
367913235,2002,fire_station,Atlanta Fire Rescue Department - Fire Station 14,-84.4235521000,33.7220759000,-84.42355,33.72208
367913236,2002,fire_station,Atlanta Station 17 Fire Station,-84.4368000000,33.7425000000,-84.4368,33.7425
367913237,2002,fire_station,Atlanta Fire Rescue Department - Fire Station 20,-84.4069111000,33.7180346000,-84.40691,33.71803
367913320,2002,fire_station,Atlanta Fire Rescue Department - Training Center,-84.4026255000,33.7057352000,-84.40263,33.70574
367913539,2007,library,Dunbar Branch Atlanta-Fulton Library,-84.3979827000,33.7414957000,-84.39798,33.7415
367913545,2007,library,Georgia Hill Branch Atlanta-Fulton Library,-84.3796486000,33.7370512000,-84.37965,33.73705
367913563,2007,library,Stewart Lakewood Branch Atlanta-Fulton Library,-84.4113161000,33.6973302000,-84.41132,33.69733
367914154,2001,police,Atlanta Police Station Headquarters,-84.3864000000,33.7501000000,-84.3864,33.7501
367914309,2001,police,Atlanta Precinct Number 4 Police Station,-84.4501647000,33.7251754000,-84.45016,33.72518
534031188,2099,public_building,City of Atlanta Public Safety Headquarters,-84.3945398000,33.7481302000,-84.39454,33.74813
1748936232,2002,fire_station,Station 10,-84.3684889000,33.7422402000,-84.36849,33.74224
3501750121,2002,fire_station,Atlanta Fire Rescue Department - Fire Station 2,-84.3813462000,33.7103314000,-84.38135,33.71033
358785277,2005,post_office,Morris Brown Post Office,-84.4106000000,33.7559000000,-84.4106,33.7559
367913209,2002,fire_station,Atlanta Fire Rescue Department - Fire Station 8,-84.4356801000,33.8021266000,-84.43568,33.80213
367913219,2002,fire_station,Atlanta Fire Rescue Department - Fire Station 16,-84.4219064000,33.7631523000,-84.42191,33.76315
367913233,2002,fire_station,Atlanta Fire Rescue Department - Fire Station 23,-84.4159008000,33.7976469000,-84.4159,33.79765
367913234,2002,fire_station,Atlanta Fire Rescue - Station 22,-84.4505703000,33.7775990000,-84.45057,33.7776
367913523,2007,library,West Hunter Branch Atlanta-Fulton Public Library,-84.4240949000,33.7539955000,-84.42409,33.754
367913597,2007,library,Perry Holmes Library,-84.4505000000,33.7933000000,-84.4505,33.7933
367913992,2007,library,Robert W Woodruff Library,-84.4146501000,33.7531622000,-84.41465,33.75316
1259072901,2005,post_office,United States Post Office,-84.4137676000,33.8087596000,-84.41377,33.80876
1259638889,2005,post_office,The UPS Store,-84.4137201000,33.8101384000,-84.41372,33.81014
358785230,2005,post_office,Atlanta Downtown Post Office,-84.3932000000,33.7564000000,-84.3932,33.7564
358785252,2005,post_office,CNN Center Post Office,-84.3960000000,33.7579000000,-84.396,33.7579
358785255,2005,post_office,Federal Center Post Office,-84.3941000000,33.7565000000,-84.3941,33.7565
358785285,2005,post_office,Peachtree Center Post Office,-84.3867000000,33.7602000000,-84.3867,33.7602
367913228,2002,fire_station,Atlanta Station 1 Fire Station,-84.3984092000,33.7525654000,-84.39841,33.75257
367913504,2007,library,William Russell Pullen Library,-84.3868162000,33.7524736000,-84.38682,33.75247
367914081,2001,police,Atlanta Precinct Number 5 Police Station,-84.3957000000,33.7575000000,-84.3957,33.7575
1254327928,2001,police,GSU Police Department,-84.3891017000,33.7543838000,-84.3891,33.75438
358782219,2005,post_office,College Park Branch Atlanta Post Office,-84.4502059000,33.6514983000,-84.45021,33.6515
358782239,2005,post_office,East Point Branch Atlanta Post Office,-84.4429837000,33.6756644000,-84.44298,33.67566
367913028,2002,fire_station,Hapeville Station 2 Fire Station,-84.4180000000,33.6631000000,-84.418,33.6631
367913314,2002,fire_station,East Point Station 4 Fire Station,-84.4619000000,33.6752000000,-84.4619,33.6752
367913315,2002,fire_station,East Point Station 3 Fire Station,-84.4286000000,33.6690000000,-84.4286,33.669
367913316,2002,fire_station,East Point Station 2 Fire Station,-84.4289000000,33.6690000000,-84.4289,33.669
367913317,2002,fire_station,East Point Station 1 Fire Station,-84.4421000000,33.6799000000,-84.4421,33.6799
367913318,2002,fire_station,College Park Station 1 Fire Station,-84.4502000000,33.6523000000,-84.4502,33.6523
367913510,2007,library,College Park Branch Atlanta-Fulton Library,-84.4499281000,33.6556649000,-84.44993,33.65566
367913722,2007,library,East Point Library,-84.4406493000,33.6803400000,-84.44065,33.68034
367914311,2001,police,College Park Police Station,-84.4500000000,33.6530000000,-84.45,33.653
367914684,2008,town_hall,College Park City Hall,-84.4499281000,33.6551094000,-84.44993,33.65511
367914689,2008,town_hall,East Point City Hall,-84.4421503000,33.6795531000,-84.44215,33.67955
367914703,2008,town_hall,Atlanta City Hall Annex,-84.4292000000,33.6699000000,-84.4292,33.6699
466104203,2001,police,East Point Police Headquarters,-84.4420140000,33.6804761000,-84.44201,33.68048
358782188,2005,post_office,Ben Hill Station Atlanta Post Office,-84.5115973000,33.6928865000,-84.5116,33.69289
367913116,2002,fire_station,Fulton County Station 19 Fire Station,-84.5162000000,33.7745000000,-84.5162,33.7745
367913139,2002,fire_station,Fulton County Headquarters Fire Station,-84.5188000000,33.7739000000,-84.5188,33.7739
367913374,2002,fire_station,Fulton County Fire Station 2,-84.5231000000,33.7299000000,-84.5231,33.7299
367913376,2002,fire_station,Fulton County Station 13 Fire Station,-84.5833000000,33.7169000000,-84.5833,33.7169
358785269,2005,post_office,Martech Post Office,-84.4024000000,33.7731000000,-84.4024,33.7731
367913635,2007,library,Anne Wallace Branch Atlanta-Fulton Public Library,-84.3932604000,33.7689949000,-84.39326,33.76899
2797771940,2005,post_office,MARTECH Post Office,-84.4053096000,33.7736393000,-84.40531,33.77364
3342844150,2005,post_office,Georgia Institute of Technology Branch Post Office,-84.3985815000,33.7736907000,-84.39858,33.77369
358785557,2005,post_office,Sandy Springs Post Office,-84.3777341000,33.9214415000,-84.37773,33.92144
367913272,2002,fire_station,Fulton County Station 2 Fire Station,-84.3832000000,33.9260000000,-84.3832,33.926
367913566,2007,library,Sandy Springs Branch Atlanta-Fulton Public Library,-84.3709022000,33.9247367000,-84.3709,33.92474
3936627557,2005,post_office,,-84.3816827000,33.9208129000,-84.38168,33.92081
358786012,2005,post_office,North Springs Post Office,-84.3650000000,33.9601000000,-84.365,33.9601
367912855,2009,courthouse,North Fulton County Annex Building - Courthouse,-84.3626521000,33.9657784000,-84.36265,33.96578
2928649615,2009,courthouse,Sandy Springs Municipal Court,-84.3600824000,33.9719691000,-84.36008,33.97197
2928649616,2001,police,Sandy Springs Police Headquarters,-84.3617596000,33.9701642000,-84.36176,33.97016
367913178,2002,fire_station,Alpharetta Station 1 Fire Station,-84.2738220000,34.0759915000,-84.27382,34.07599
367913192,2002,fire_station,Roswell Fire Station 5,-84.3228193000,34.0613491000,-84.32282,34.06135
367913196,2002,fire_station,Alpharetta Station 3 Fire Station,-84.3028000000,34.0534000000,-84.3028,34.0534
367913389,2002,fire_station,Fire Station Number 5,-84.3060349000,34.0612098000,-84.30603,34.06121
367914072,2001,police,Alpharetta Police Station,-84.2840000000,34.0684000000,-84.284,34.0684
4359427092,2005,post_office,TedEx Office,-84.2701070000,34.0874162000,-84.27011,34.08742
5368616399,2002,fire_station,,-84.3043184000,34.0503749000,-84.30432,34.05037
7798636316,2005,post_office,The UPS Store,-84.2953840000,34.0051317000,-84.29538,34.00513
7829961573,2001,police,Milton police Department / Court,-84.2709358000,34.1134878000,-84.27094,34.11349
7829968419,2002,fire_station,Milton Fire Department Fire Station #44,-84.2696755000,34.1135070000,-84.26968,34.11351
367913425,2002,fire_station,Alpharetta Station 4 Fire Station,-84.2387000000,34.0609000000,-84.2387,34.0609
367913690,2007,library,Northeast-Spruill Oak Regional Library,-84.2242630000,34.0141038000,-84.22426,34.0141
560527492,2008,town_hall,City of Johns Creek City Hall,-84.1691163000,34.0605222000,-84.16912,34.06052
763282378,2007,library,Ocee Branch - Fulton County Library,-84.2096686000,34.0646766000,-84.20967,34.06468
367913366,2002,fire_station,Fulton County Station 18 Fire Station,-84.3384000000,34.1682000000,-84.3384,34.1682
367914319,2001,police,Fulton County Northwest Precinct Police Station,-84.3267000000,34.1656000000,-84.3267,34.1656
367913313,2002,fire_station,East Point Station 5 Fire Station,-84.4914000000,33.6475000000,-84.4914,33.6475
367913368,2002,fire_station,Atlanta Fire Rescue Department - Fire Station 31,-84.5112506000,33.6890856000,-84.51125,33.68909
3377394830,2005,post_office,Post Office,-84.4923833000,33.6891234000,-84.49238,33.68912
367913268,2002,fire_station,Sandy Spring Fire Station 4 (Formerly Atlanta Station 39),-84.3815554000,33.8762818000,-84.38156,33.87628
358781671,2005,post_office,Old National Station Atlanta Post Office,-84.4693724000,33.5881668000,-84.46937,33.58817
358781684,2005,post_office,Red Oak Post Office,-84.4990960000,33.6226105000,-84.4991,33.62261
358785405,2005,post_office,Old National Post Office,-84.4675583000,33.6169306000,-84.46756,33.61693
367913181,2002,fire_station,Fulton County Station 7 Fire Station,-84.4976305000,33.5936068000,-84.49763,33.59361
367913203,2002,fire_station,College Park Station 2 Fire Station,-84.4662000000,33.6242000000,-84.4662,33.6242
367913205,2002,fire_station,Clayton County Station 5 Fire Station,-84.4933000000,33.5623000000,-84.4933,33.5623
367914066,2001,police,Old National Precinct Police Station,-84.4737000000,33.6039000000,-84.4737,33.6039
367913367,2002,fire_station,Fulton County Station 10 Fire Station,-84.2910000000,34.1522000000,-84.291,34.1522
358782251,2005,post_office,Fairburn Post Office,-84.5845550000,33.5660276000,-84.58456,33.56603
358782279,2005,post_office,Palmetto Post Office,-84.6677104000,33.5206684000,-84.66771,33.52067
358782349,2005,post_office,Union City Post Office,-84.5515968000,33.5820559000,-84.5516,33.58206
367913418,2002,fire_station,Fairburn Fire Station,-84.5833821000,33.5651665000,-84.58338,33.56517
367913442,2002,fire_station,Station 1 Fire Station,-84.5257000000,33.6152000000,-84.5257,33.6152
367913443,2002,fire_station,Union City Station 1 Fire Station,-84.5535000000,33.5794000000,-84.5535,33.5794
367913444,2002,fire_station,Union City Station 2 Fire Station,-84.5407000000,33.5821000000,-84.5407,33.5821
367913533,2007,library,Fairburn Library,-84.5848307000,33.5667907000,-84.58483,33.56679
367913678,2007,library,South Fulton Library,-84.5196000000,33.5878000000,-84.5196,33.5878
367914247,2001,police,Fairburn Police Station,-84.5849724000,33.5630715000,-84.58497,33.56307
367914250,2001,police,Fulton County South Precinct Police Station,-84.5500000000,33.6014000000,-84.55,33.6014
367914252,2001,police,Union City Police Station,-84.5533000000,33.5793000000,-84.5533,33.5793
367914687,2008,town_hall,Union City City Hall,-84.5504857000,33.5831671000,-84.55049,33.58317
367914691,2008,town_hall,Fairburn City Hall,-84.5849308000,33.5653897000,-84.58493,33.56539
3518398000,2001,police,Palmetto Police Department,-84.6639174000,33.5296379000,-84.66392,33.52964
6431447086,2002,fire_station,Fire Station 22,-84.5846188000,33.5637291000,-84.58462,33.56373
6431470767,2009,courthouse,Fairburn Municipal Court,-84.5824410000,33.5672260000,-84.58244,33.56723
367913096,2002,fire_station,Roswell Fire Station 6,-84.3865072000,34.0896610000,-84.38651,34.08966
367913097,2002,fire_station,Roswell Fire Station 3,-84.3829134000,34.0465578000,-84.38291,34.04656
367913197,2002,fire_station,Roswell Fire Station 2,-84.3608000000,34.0511000000,-84.3608,34.0511
367913467,2002,fire_station,Fire Station Number 41,-84.3618183000,34.0910291000,-84.36182,34.09103
367913478,2002,fire_station,Roswell Fire Station 1,-84.3602360000,34.0260571000,-84.36024,34.02606
367913588,2007,library,Fulton County Library - Roswell Branch,-84.3579437000,34.0249793000,-84.35794,34.02498
367914146,2002,fire_station,Mountain Park Volunteer Fire and Rescue Department,-84.4157337000,34.0828654000,-84.41573,34.08287
367914197,2001,police,Roswell Police Station,-84.3596483000,34.0214886000,-84.35965,34.02149
367914713,2008,town_hall,Roswell City Hall,-84.3600761000,34.0224734000,-84.36008,34.02247
1821246372,2005,post_office,Roswell Post Office,-84.3405373000,34.0398005000,-84.34054,34.0398
2441538884,2005,post_office,The UPS Store,-84.3912470000,34.0037350000,-84.39125,34.00374
358782086,2005,post_office,Civic Center Station Atlanta Post Office,-84.3823948000,33.7700999000,-84.38239,33.7701
367913223,2002,fire_station,Atlanta Fire Station 15,-84.3817109000,33.7820455000,-84.38171,33.78205
367913572,2007,library,Martin Luther King Junior Branch Atlanta-Fulton Public Library,-84.3724262000,33.7562173000,-84.37243,33.75622
2404373167,2005,post_office,The UPS Store,-84.3687040000,33.7803860000,-84.3687,33.78039
367913060,2002,fire_station,Hapeville Station 1 Fire Station,-84.4080884000,33.6594990000,-84.40809,33.6595
367913240,2002,fire_station,Atlanta Station 24 Fire Station,-84.4104000000,33.6524000000,-84.4104,33.6524
367913244,2002,fire_station,Atlanta Fire Rescue Department - Fire Station 30,-84.3893750000,33.6807202000,-84.38938,33.68072
367913246,2002,fire_station,Atlanta Fire Rescue Department - Fire Station 34,-84.3746856000,33.6551684000,-84.37469,33.65517
367913587,2007,library,Hapeville Library,-84.4048000000,33.6585000000,-84.4048,33.6585
367913711,2007,library,Cleveland Avenue Library,-84.3906000000,33.6814000000,-84.3906,33.6814
1576161806,2005,post_office,Atlanta Post Office,-84.3935183000,33.6519690000,-84.39352,33.65197
358785194,2005,post_office,United States Post Office,-84.3555245000,33.7871483000,-84.35552,33.78715
358785202,2005,post_office,Ralph McGill Post Office,-84.3610287000,33.7698507000,-84.36103,33.76985
367913296,2002,fire_station,Atlanta Fire Station 19,-84.3542920000,33.7835926000,-84.35429,33.78359
1575700331,2005,post_office,United States Post Office,-84.3881908000,33.7839986000,-84.38819,33.784
2750107083,2005,post_office,Amazon@GeorgiaTech,-84.3898732000,33.7766780000,-84.38987,33.77668
367913297,2002,fire_station,Atlanta Fire Rescue Department - Fire Station 29,-84.3691000000,33.8106000000,-84.3691,33.8106
3398664552,2007,library,Peachtree Branch Library,-84.3847673000,33.7906762000,-84.38477,33.79068
3510252112,2002,fire_station,Atlanta Fire Rescue - Station 11,-84.3929325000,33.7904399000,-84.39293,33.79044
7850057051,2007,library,ACA Library of SCAD,-84.3909491000,33.7972525000,-84.39095,33.79725
1237714061,2001,police,Zone 6 Precinct,-84.3493855000,33.7653838000,-84.34939,33.76538
